<?xml version="1.0" encoding="utf-8"?>
 <markers>
<marker name="Western Ottawa Community Resource Centre" bilingual_="NO" address="2 MacNeil Court" lat="45.298779" lng="-75.891121"/>
<marker name="South-East Ottawa Centre For A Healthy Community" bilingual_="YES" address="1355 Bank Street, Suite 600" lat="45.387489" lng="-75.675446"/>
<marker name="Eastern Ottawa Resource Centre" bilingual_="YES" address="2339 Ogilvie Road" lat="45.433987" lng="-75.612305"/>
<marker name="Abbotsford House" bilingual_="NO" address="950 Bank Street" lat="45.399109" lng="-75.686142"/>
<marker name="Jewish Family Services of Ottawa" bilingual_="NO" address="Suite 301 - 2255 Carling Avenue" lat="45.368610" lng="-75.774353"/>
<marker name="Meals-on-Wheels - The King's Daughters Dinner Wagon" bilingual_="YES" address="790 Bronson Avenue" lat="45.399902" lng="-75.699036"/>
<marker name="Nepean Support Services" bilingual_="NO" address="3865 Richmond Road" lat="45.308174" lng="-75.830338"/>
<marker name="Olde Forge Community Resource Centre" bilingual_="NO" address="2730 Carling Avenue" lat="45.359955" lng="-75.793846"/>
<marker name="Ottawa West Community Support" bilingual_="YES" address="1137 Wellington Street" lat="45.401978" lng="-75.726692"/>
<marker name="Rideau Community Support Services" bilingual_="NO" address="1128 Mill Street" lat="45.226204" lng="-75.683670"/>
<marker name="Centre de services Guigues" bilingual_="NO" address="159 Murray Street" lat="45.430641" lng="-75.691330"/>
<marker name="St. Patrick's Home of Ottawa Outreach Services" bilingual_="NO" address="2865 Riverside Drive" lat="45.370502" lng="-75.690331"/>
<marker name="The Good Companions" bilingual_="NO" address="670 Albert Street" lat="45.416691" lng="-75.707809"/>
<marker name="Township of Osgoode Home Support Program" bilingual_="NO" address="" lat="45.255791" lng="-75.456474"/>
<marker name="VHA Health and Home Support" bilingual_="YES" address="" lat="45.409035" lng="-75.718056"/>
<marker name="Carefor Health & Community Services" bilingual_="NO" address="1200 St Laurent Blvd " lat="45.423393" lng="-75.636932"/>
<marker name="Alzheimer Society of Ottawa and Renfrew County" bilingual_="YES" address="Suite 1742 - 1750 Russell Road" lat="45.403606" lng="-75.632271"/>
<marker name="Personal Choice Independent Living (PCIL)" bilingual_="YES" address="212-520 Bronson Avenue" lat="45.406521" lng="-75.702873"/>
<marker name="Residence Saint-Louis" bilingual_="NO" address="" lat="45.481796" lng="-75.547256"/>
</markers>